{
"type": "FeatureCollection",
"name": "universitas",
"crs": { "type": "name", "properties": { "name": "urn:ogc:def:crs:OGC:1.3:CRS84" } },
"features": [
{ "type": "Feature", "properties": { "type": 11269, "label": "UNIVERSITAS NEGERI YOGYAKARTA WATES", "descr": "MANDUNG", "city": "KABUPATEN KULON PROGO", "region": "DAERAH ISTIMEWA YOGYAKARTA", "lat": -7.854, "long": 110.16371 }, "geometry": { "type": "Point", "coordinates": [ 110.16371, -7.854 ] } },
{ "type": "Feature", "properties": { "type": 11269, "label": "UNIVERSITAS MERCU BUANA YOGYAKARTA (KAMPUS 1)", "descr": "WATES KM 10 YOGYAKARTA, ARGOMULYO, SEDAYU, BANTUL", "city": "KABUPATEN BANTUL", "region": "DAERAH ISTIMEWA YOGYAKARTA", "lat": -7.80885, "long": 110.27036 }, "geometry": { "type": "Point", "coordinates": [ 110.27036, -7.80885 ] } },
{ "type": "Feature", "properties": { "type": 11269, "label": "UPY KAMPUS 3 FAKULTAS PERTANIAN", "descr": null, "city": "KABUPATEN BANTUL", "region": "DAERAH ISTIMEWA YOGYAKARTA", "lat": -7.80879, "long": 110.33918 }, "geometry": { "type": "Point", "coordinates": [ 110.33918, -7.80879 ] } },
{ "type": "Feature", "properties": { "type": 11269, "label": "UNIVERSITAS WIDYA MATARAM", "descr": "NDALEM MANGKUBUMEN NGASEM KT III\/237", "city": "KOTA YOGYAKARTA", "region": "DAERAH ISTIMEWA YOGYAKARTA", "lat": -7.80748, "long": 110.35803 }, "geometry": { "type": "Point", "coordinates": [ 110.35803, -7.80748 ] } },
{ "type": "Feature", "properties": { "type": 11269, "label": "UNY (UNIVERSITAS NEGERI YOGYAKARTA)", "descr": null, "city": "KABUPATEN SLEMAN", "region": "DAERAH ISTIMEWA YOGYAKARTA", "lat": -7.77611, "long": 110.38758 }, "geometry": { "type": "Point", "coordinates": [ 110.38758, -7.77611 ] } },
{ "type": "Feature", "properties": { "type": 11269, "label": "UGM (UNIVERSITAS GADJAH MADA)", "descr": "KAMPUS UGM-JALAN KALIURANG", "city": "KABUPATEN SLEMAN", "region": "DAERAH ISTIMEWA YOGYAKARTA", "lat": -7.76854, "long": 110.37833 }, "geometry": { "type": "Point", "coordinates": [ 110.37833, -7.76854 ] } },
{ "type": "Feature", "properties": { "type": 11269, "label": "UNIVERSITAS TEKNOLOGI YOGYAKARTA", "descr": null, "city": "KABUPATEN SLEMAN", "region": "DAERAH ISTIMEWA YOGYAKARTA", "lat": -7.74734, "long": 110.35537 }, "geometry": { "type": "Point", "coordinates": [ 110.35537, -7.74734 ] } },
{ "type": "Feature", "properties": { "type": 11269, "label": "UNIVERSITAS PEMBANGUNAN NASIONAL (UPN) JOGJAKARTA", "descr": "RING ROAD UTARA - SETURAN", "city": "KABUPATEN SLEMAN", "region": "DAERAH ISTIMEWA YOGYAKARTA", "lat": -7.76107, "long": 110.40822 }, "geometry": { "type": "Point", "coordinates": [ 110.40822, -7.76107 ] } },
{ "type": "Feature", "properties": { "type": 11269, "label": "UIN SUNAN KALIJAGA (UNIVERSITAS ISLAM NEGERI)", "descr": "URIP SUMOHARJO", "city": "KABUPATEN SLEMAN", "region": "DAERAH ISTIMEWA YOGYAKARTA", "lat": -7.78353, "long": 110.39447 }, "geometry": { "type": "Point", "coordinates": [ 110.39447, -7.78353 ] } },
{ "type": "Feature", "properties": { "type": 11269, "label": "UPN BABARSARI", "descr": "BABARSARI", "city": "KABUPATEN SLEMAN", "region": "DAERAH ISTIMEWA YOGYAKARTA", "lat": -7.78186, "long": 110.41436 }, "geometry": { "type": "Point", "coordinates": [ 110.41436, -7.78186 ] } },
{ "type": "Feature", "properties": { "type": 11269, "label": "UPN", "descr": null, "city": "KABUPATEN SLEMAN", "region": "DAERAH ISTIMEWA YOGYAKARTA", "lat": -7.76193, "long": 110.40932 }, "geometry": { "type": "Point", "coordinates": [ 110.40932, -7.76193 ] } },
{ "type": "Feature", "properties": { "type": 11269, "label": "UNIVERSITAS SANATA DHARMA (USD)", "descr": "MRICAN", "city": "KABUPATEN SLEMAN", "region": "DAERAH ISTIMEWA YOGYAKARTA", "lat": -7.77544, "long": 110.39258 }, "geometry": { "type": "Point", "coordinates": [ 110.39258, -7.77544 ] } },
{ "type": "Feature", "properties": { "type": 11269, "label": "UII (UNIVERSITAS ISLAM INDONESIA)", "descr": "CIK DI TIRO", "city": "KOTA YOGYAKARTA", "region": "DAERAH ISTIMEWA YOGYAKARTA", "lat": -7.78197, "long": 110.37483 }, "geometry": { "type": "Point", "coordinates": [ 110.37483, -7.78197 ] } },
{ "type": "Feature", "properties": { "type": 11269, "label": "UNIVERSITAS COKROAMINOTO", "descr": null, "city": "KOTA YOGYAKARTA", "region": "DAERAH ISTIMEWA YOGYAKARTA", "lat": -7.81943, "long": 110.39316 }, "geometry": { "type": "Point", "coordinates": [ 110.39316, -7.81943 ] } },
{ "type": "Feature", "properties": { "type": 11269, "label": "UNIVERSITAS SARJANA WIYATA", "descr": "BATIKAN", "city": "KOTA YOGYAKARTA", "region": "DAERAH ISTIMEWA YOGYAKARTA", "lat": -7.80812, "long": 110.38157 }, "geometry": { "type": "Point", "coordinates": [ 110.38157, -7.80812 ] } },
{ "type": "Feature", "properties": { "type": 11269, "label": "UNIVERSITAS JANABADRA", "descr": "TENTARA RAKYAT MATARAM", "city": "KOTA YOGYAKARTA", "region": "DAERAH ISTIMEWA YOGYAKARTA", "lat": -7.78414, "long": 110.3575 }, "geometry": { "type": "Point", "coordinates": [ 110.3575, -7.78414 ] } },
{ "type": "Feature", "properties": { "type": 11269, "label": "UPY KAMPUS 2", "descr": "SONOSEWU", "city": "KABUPATEN BANTUL", "region": "DAERAH ISTIMEWA YOGYAKARTA", "lat": -7.80624, "long": 110.33921 }, "geometry": { "type": "Point", "coordinates": [ 110.33921, -7.80624 ] } },
{ "type": "Feature", "properties": { "type": 11269, "label": "UNIVERSITAS AHMAD DAHLAN KAMPUS 3", "descr": "PROFESOR DOKTOR SUPOMO SH", "city": "KOTA YOGYAKARTA", "region": "DAERAH ISTIMEWA YOGYAKARTA", "lat": -7.80849, "long": 110.38968 }, "geometry": { "type": "Point", "coordinates": [ 110.38968, -7.80849 ] } },
{ "type": "Feature", "properties": { "type": 11269, "label": "UNIVERSITAS AHMAD DAHLAN KAMPUS 2( FKIP, FH, FSASTRA)", "descr": "PRAMUKA NO.2, SIDIKAN, UMBUL HARJO", "city": "KOTA YOGYAKARTA", "region": "DAERAH ISTIMEWA YOGYAKARTA", "lat": -7.82025, "long": 110.38807 }, "geometry": { "type": "Point", "coordinates": [ 110.38807, -7.82025 ] } },
{ "type": "Feature", "properties": { "type": 11269, "label": "UNIVERSITAS JANABADRA", "descr": "TIMOHO", "city": "KOTA YOGYAKARTA", "region": "DAERAH ISTIMEWA YOGYAKARTA", "lat": -7.79619, "long": 110.39153 }, "geometry": { "type": "Point", "coordinates": [ 110.39153, -7.79619 ] } },
{ "type": "Feature", "properties": { "type": 11269, "label": "UNIVERSITAS PGRI YOGYAKARTA", "descr": "SONOSEWU", "city": "KABUPATEN BANTUL", "region": "DAERAH ISTIMEWA YOGYAKARTA", "lat": -7.80645, "long": 110.34093 }, "geometry": { "type": "Point", "coordinates": [ 110.34093, -7.80645 ] } },
{ "type": "Feature", "properties": { "type": 11269, "label": "UNIVERSITAS KRISTEN DUTA WACANA", "descr": "DOKTER WAHIDIN SUDIROHUSODO", "city": "KOTA YOGYAKARTA", "region": "DAERAH ISTIMEWA YOGYAKARTA", "lat": -7.786, "long": 110.37848 }, "geometry": { "type": "Point", "coordinates": [ 110.37848, -7.786 ] } },
{ "type": "Feature", "properties": { "type": 11269, "label": "UNIVERSITAS SARJANAWIYATA TAMANSISWA FAK. EKONOMI", "descr": "KUSUMA NEGARA", "city": "KOTA YOGYAKARTA", "region": "DAERAH ISTIMEWA YOGYAKARTA", "lat": -7.80186, "long": 110.38861 }, "geometry": { "type": "Point", "coordinates": [ 110.38861, -7.80186 ] } },
{ "type": "Feature", "properties": { "type": 11269, "label": "UNIVERSITAS RESPATI YOGYAKARAT (UNRIYO)", "descr": "LAKSDA ADISUCIPTO", "city": "KABUPATEN SLEMAN", "region": "DAERAH ISTIMEWA YOGYAKARTA", "lat": -7.78143, "long": 110.40674 }, "geometry": { "type": "Point", "coordinates": [ 110.40674, -7.78143 ] } },
{ "type": "Feature", "properties": { "type": 11269, "label": "UNIVERSITAS PROKLAMASI 45", "descr": "BABARSARI", "city": "KABUPATEN SLEMAN", "region": "DAERAH ISTIMEWA YOGYAKARTA", "lat": -7.77433, "long": 110.41593 }, "geometry": { "type": "Point", "coordinates": [ 110.41593, -7.77433 ] } },
{ "type": "Feature", "properties": { "type": 11269, "label": "UNIVERSITAS ATMAJAYA YOGYAKARTA (UAJY)", "descr": "BABARSARI 43 - SETURAN, KECAMATANDEPOK", "city": "KABUPATEN SLEMAN", "region": "DAERAH ISTIMEWA YOGYAKARTA", "lat": -7.78055, "long": 110.41426 }, "geometry": { "type": "Point", "coordinates": [ 110.41426, -7.78055 ] } },
{ "type": "Feature", "properties": { "type": 11269, "label": "UNIVERITAS KRITSEN IMMANUEL", "descr": "KALASAN", "city": "KABUPATEN SLEMAN", "region": "DAERAH ISTIMEWA YOGYAKARTA", "lat": -7.77549, "long": 110.44953 }, "geometry": { "type": "Point", "coordinates": [ 110.44953, -7.77549 ] } },
{ "type": "Feature", "properties": { "type": 11269, "label": "UII (UNIVERSITAS ISLAM INDONESIA)", "descr": "KALIURANG KM 14", "city": "KABUPATEN SLEMAN", "region": "DAERAH ISTIMEWA YOGYAKARTA", "lat": -7.68758, "long": 110.41859 }, "geometry": { "type": "Point", "coordinates": [ 110.41859, -7.68758 ] } },
{ "type": "Feature", "properties": { "type": 11269, "label": "UNIVERSITAS AHMAD DAHLAN KAMPUS TERPADU", "descr": "RINGROAD SELATAN", "city": "KABUPATEN BANTUL", "region": "DAERAH ISTIMEWA YOGYAKARTA", "lat": -7.83463, "long": 110.38346 }, "geometry": { "type": "Point", "coordinates": [ 110.38346, -7.83463 ] } },
{ "type": "Feature", "properties": { "type": 11269, "label": "UNIVERSITAS SANATA DHARMA", "descr": "DSN PAINGAN MAGUWOHARJO DEPOK", "city": "KABUPATEN SLEMAN", "region": "DAERAH ISTIMEWA YOGYAKARTA", "lat": -7.75352, "long": 110.42195 }, "geometry": { "type": "Point", "coordinates": [ 110.42195, -7.75352 ] } },
{ "type": "Feature", "properties": { "type": 11269, "label": "UNIVERSITAS RESPATI YOGYAKARTA (UNRIYO)", "descr": "RAYA TAJEM", "city": "KABUPATEN SLEMAN", "region": "DAERAH ISTIMEWA YOGYAKARTA", "lat": -7.74639, "long": 110.43404 }, "geometry": { "type": "Point", "coordinates": [ 110.43404, -7.74639 ] } },
{ "type": "Feature", "properties": { "type": 11269, "label": "UNIVERSITAS GUNUNG KIDUL", "descr": "HAJI AGUS SALIM", "city": "KABUPATEN GUNUNGKIDUL", "region": "DAERAH ISTIMEWA YOGYAKARTA", "lat": -7.95376, "long": 110.58946 }, "geometry": { "type": "Point", "coordinates": [ 110.58946, -7.95376 ] } }
]
}
